시설종류,시설명,도로명주소,위도,경도,CCTV유무,CCTV대수,구,카메라_300m,CCTV_300m,표지판_300m,조명_500m,지킴이집_500m,사고다발지_500m,사고심각도_500m,최근접_카메라_거리,최근접_CCTV_거리,CCTV유무_수치,안전점수,안전여부,예측_안전점수_LightGBM,예측_안전점수_RandomForest,예측_안전점수_GBR,예측_안전점수_Ridge,예측_안전점수_SVR,예측_안전여부_LR,예측_안전확률_LR,예측_안전지수_v2
유치원,배성유치원,경기도 성남시 분당구 판교로 624-1,37.405999,127.142401,Y,1.0,분당구,4,8,3,396,2,0,0.0,67.5106563264694,61.65454733873358,1,100.0,1,99.96,99.71,99.97,100.02,100.08,1,0.9869,86.77
유치원,이솔유치원,경기도 성남시 분당구 미금로 232,37.352756,127.112602,Y,5.0,분당구,7,9,5,488,3,5,88.0,39.66345835409129,22.392842000682442,1,100.0,1,99.81,99.23,100.02,96.38,100.1,1,0.9757,82.14
유치원,성모 유치원,경기도 성남시 분당구 구미로 130번길 20,37.340099,127.124419,Y,4.0,분당구,0,7,1,270,0,0,0.0,425.8792518229187,36.07095368391369,1,100.0,1,98.59,98.11,100.29,97.18,100.1,1,0.8414,83.15
유치원,판교샘유치원,경기도 성남시 분당구 산운로 98,37.392021,127.072039,Y,1.0,분당구,3,19,2,545,2,0,0.0,117.88174011406029,108.08729824385101,1,100.0,1,99.56,99.8,99.97,103.14,99.9,1,0.9941,90.74
유치원,건영장안유치원,경기도 성남시 분당구 장안로 25번길 28,37.371127,127.140849,Y,1.0,분당구,5,15,6,612,4,0,0.0,85.24172902126644,28.829979764394626,1,100.0,1,100.03,99.93,99.97,106.88,99.98,1,0.999,95.51
유치원,뽀뽀뽀유치원,경기도 성남시 분당구 양현로 507,37.415425,127.138017,Y,4.0,분당구,5,9,6,322,3,1,20.0,51.56755383828761,57.419666377688685,1,100.0,1,100.0,99.97,99.97,98.08,99.99,1,0.9848,84.31
유치원,해나유치원,경기도 성남시 분당구 서판교로44번길 3,37.390831,127.09829,Y,1.0,분당구,3,18,5,590,1,0,0.0,33.878982422012186,22.54170743941177,1,100.0,1,100.68,99.78,99.98,106.62,99.9,1,0.9967,95.18
유치원,샛별유치원,경기도 성남시 분당구 수내로 201,37.371468,127.129754,Y,1.0,분당구,3,7,2,413,3,0,0.0,235.9535964229716,73.15973220667914,1,100.0,1,99.93,99.7,100.33,99.89,100.04,1,0.9864,86.6
유치원,성마르코유치원,경기도 성남시 분당구 매화로37번길 6,37.410832,127.133182,Y,1.0,분당구,4,23,4,577,4,7,113.0,54.843852729046276,24.522685640105315,1,100.0,1,101.07,99.6,99.99,97.22,100.1,1,0.9864,83.2
유치원,숲리라유치원,경기도 성남시 수정구 위례순환로4길 2,37.469683,127.147866,Y,1.0,수정구,5,14,0,26,0,0,0.0,149.78027869282928,26.871426938232027,1,100.0,1,99.31,95.18,101.18,90.2,99.9,1,0.6839,74.27
유치원,즐거운유치원,경기도 성남시 분당구 미금로 215,37.351408,127.111941,Y,1.0,분당구,6,14,4,548,5,5,88.0,108.47493807733245,59.32812862689615,1,100.0,1,100.03,100.0,100.02,97.22,100.1,1,0.9911,83.21
유치원,혜성유치원,경기도 성남시 중원구 광명로 308,37.444509,127.160252,N,0.0,중원구,12,39,4,777,0,10,155.0,16.315363711870493,19.194577865387114,0,100.0,1,97.57,96.38,99.45,102.48,99.02,1,0.9427,89.91
어린이집,산성어린이집,경기도 성남시 수정구 수정남로 269,37.453007,127.150387,Y,4.0,수정구,7,19,2,500,3,8,110.0,145.93918286195873,36.304464901107096,1,100.0,1,99.87,98.42,100.09,95.5,99.85,1,0.923,81.01
어린이집,성남어린이집,경기도 성남시 수정구 시민로222번길 6,37.447702,127.141485,Y,1.0,수정구,7,67,8,855,7,11,219.0,55.827112055501864,15.425643819852871,1,100.0,1,96.7,96.8,100.22,96.71,99.9,1,0.9985,82.55
어린이집,성현어린이집,경기도 성남시 수정구 탄리로17번길 6,37.438454,127.138715,Y,1.0,수정구,2,33,4,1324,2,15,310.0,218.64483218545095,17.92762600875305,1,100.0,1,108.67,97.5,101.55,98.75,99.9,1,0.9893,85.15
어린이집,리플플러스어린이집,경기도 성남시 수정구 성남대로1250번길 7-2,37.44181,127.128384,Y,1.0,수정구,10,33,13,790,7,19,372.0,180.95365816747537,47.78908336999238,1,100.0,1,98.33,95.59,99.82,86.78,99.9,1,0.9211,69.9
초등학교,당촌초등학교,경기도 성남시 분당구 분당로 196,37.373689,127.131262,Y,3.0,분당구,4,8,5,436,6,1,5.0,0.0,63.686696536582836,1,100.0,1,99.99,99.93,99.99,100.96,99.9,1,0.9982,87.96
초등학교,수내초등학교,경기도 성남시 분당구 백현로 243번길 12,37.367765,127.124663,Y,3.0,분당구,3,14,3,559,0,1,16.0,0.44477970624536156,32.5517494164228,1,100.0,1,100.95,99.81,99.92,103.21,100.08,1,0.9893,90.84
어린이집,산성3어린이집,경기도 성남시 수정구 수정로 456번길 19,37.460461,127.155653,N,0.0,수정구,2,14,4,243,1,0,0.0,210.0111678319054,30.480542571007394,0,100.0,1,99.6,99.57,99.83,99.64,100.1,1,0.9415,86.28
유치원,은서유치원,경기도 성남시 수정구 탄리로 95번길 7-17,37.443605,127.134977,Y,4.0,수정구,5,36,5,1020,6,30,539.0,65.85747488184106,17.495495138052394,1,44.5,0,91.52,68.75,16.88,75.76,93.4,0,0.3644,55.88
유치원,예원유치원,경기도 성남시 중원구 원터로 93번길 3,37.435032,127.143201,Y,5.0,중원구,6,17,5,449,1,7,191.0,30.146652940250625,22.312218705109515,1,100.0,1,97.79,99.7,99.98,84.67,99.9,1,0.8121,67.22
유치원,다솜유치원,경기도 성남시 중원구 산성대로 408번길 48,37.447962,127.163685,Y,1.0,중원구,2,35,3,757,4,4,46.0,154.672294772701,16.146904622653448,1,100.0,1,100.01,98.91,100.17,107.06,100.1,1,0.9986,95.74
유치원,아름다운유치원,경기도 성남시 분당구 수내로 192번길 25,37.367591,127.125773,Y,3.0,분당구,3,14,3,550,2,1,16.0,45.22368293216885,69.28938606103335,1,100.0,1,99.95,99.99,100.0,102.39,100.1,1,0.9939,89.78
유치원,세화유치원,경기도 성남시 분당구 불정로 362,37.372737,127.136164,Y,5.0,분당구,3,11,5,512,3,0,0.0,235.22267780960365,102.03766797341278,1,100.0,1,99.41,99.79,99.89,103.91,99.9,1,0.9942,91.72
유치원,분당중앙유치원,경기도 성남시 분당구 분당로 263번길 61,37.373451,127.141671,Y,1.0,분당구,7,21,4,587,5,0,0.0,64.7238230706952,17.96556216595609,1,100.0,1,99.97,98.98,100.03,104.48,99.92,1,0.9992,92.45
어린이집,보듬이나눔이어린이집,경기도 성남시 분당구 야탑로 303,37.4065,127.151955,N,0.0,분당구,0,3,0,316,1,0,0.0,453.45955201125054,14.448821248505267,0,100.0,1,97.97,96.44,99.14,99.08,99.9,1,0.8927,85.57
어린이집,운중하나어린이집,경기도 성남시 분당구 판교원로 52,37.389574,127.072072,Y,2.0,분당구,2,14,4,576,1,0,0.0,96.60008752138023,37.90984349622425,1,100.0,1,99.98,99.99,100.01,105.53,100.02,1,0.995,93.79
어린이집,푸르니이매어린이집,경기도 성남시 분당구 이매로 89번길 16,37.3938,127.13236,N,0.0,분당구,2,7,0,144,0,0,0.0,150.77519481943233,61.578388094701474,0,100.0,1,94.92,95.79,100.5,94.29,97.08,1,0.7859,79.47
특수학교,성남혜은학교,경기도 성남시 수정구 희망로518번길 8,37.450396,127.153922,Y,4.0,수정구,6,26,5,638,4,3,37.0,134.3830658049484,64.04673328821796,1,100.0,1,99.98,99.98,100.05,104.98,100.1,1,0.9973,93.09
특수학교,성은특수학교,경기도 성남시 분당구 돌마로 866,37.409122,127.143952,Y,4.0,분당구,2,10,4,552,2,0,0.0,26.346146072199833,32.80012058589179,1,100.0,1,100.11,99.99,99.97,104.01,99.94,1,0.9965,91.86
학원,케이디엘피어학원,경기도 성남시 분당구 서현로 181,37.389127,127.124549,N,0.0,분당구,8,11,7,507,3,6,105.0,80.1951570014819,38.72285933127317,0,100.0,1,99.97,99.46,99.8,99.27,99.9,1,0.9686,85.81
초등학교,판교초등학교,경기도 성남시 분당구 판교원로 231,37.387282,127.091443,Y,5.0,분당구,4,16,5,382,4,0,0.0,104.66601092497733,104.68575775878399,1,100.0,1,99.37,99.85,99.95,100.11,99.96,1,0.9941,86.89
초등학교,성남동초등학교,경기도 성남시 중원구 자혜로 32번길 10,37.449215,127.162178,Y,5.0,중원구,1,25,1,776,4,4,55.0,54.54797258244609,67.46027520806582,1,100.0,1,99.89,99.54,99.74,103.63,99.9,1,0.9983,91.37
초등학교,태평초등학교,경기도 성남시 수정구 남문로 32번길 7,37.444953,127.131694,Y,6.0,수정구,5,38,9,906,9,23,432.0,1.1530383202141026,37.67708472833512,1,100.0,1,93.39,88.33,100.33,81.11,99.9,1,0.9503,62.69
초등학교,성수초등학교,경기도 성남시 수정구 모란로 11,37.433766,127.127238,Y,9.0,수정구,8,29,3,500,3,30,763.0,68.79369266363298,67.32920788402586,1,0.0,0,19.49,60.43,0.4,31.89,85.39,0,0.0004,0.0
초등학교,금빛초등학교,경기도 성남시 수정구 남문로 112,37.447331,127.140567,Y,7.0,수정구,5,64,5,885,7,13,254.0,65.51667168270187,49.697838858332766,1,100.0,1,96.15,98.33,100.34,91.8,99.9,1,0.9959,76.3
초등학교,왕남초등학교,경기도 성남시 수정구 대왕판교로 959번길 48,37.428469,127.098687,Y,5.0,수정구,11,19,2,178,4,0,0.0,98.41693340735762,73.41052294949937,1,100.0,1,101.61,98.44,100.43,93.01,99.9,1,0.9683,77.84
초등학교,검단초등학교,경기도 성남시 중원구 원터로 25,37.429483,127.144034,Y,4.0,중원구,3,20,4,273,1,2,39.0,0.0,44.917924397199485,1,100.0,1,100.75,100.0,99.99,94.81,100.1,1,0.9461,80.14
초등학교,불곡초등학교,경기도 성남시 분당구 무지개로 129,37.340984,127.11973,Y,3.0,분당구,3,4,4,378,1,1,16.0,0.17680878634824357,66.82854513953717,1,100.0,1,100.23,99.45,99.97,99.06,100.1,1,0.9746,85.55
초등학교,성남매송초등학교,경기도 성남시 분당구 탄천로 97,37.402183,127.122403,Y,3.0,분당구,4,10,2,258,4,0,0.0,0.11119492636381853,30.006829625819947,1,100.0,1,100.22,99.96,99.89,94.89,99.91,1,0.9886,80.24
초등학교,성남정자초등학교,경기도 성남시 분당구 분당수서로 442,37.374517,127.104912,Y,2.0,분당구,5,2,2,324,1,0,0.0,87.76409845595617,87.76409845595617,1,100.0,1,99.57,99.41,100.03,97.67,99.9,1,0.9559,83.78
초등학교,중탑초등학교,경기도 성남시 분당구 벌말로 68,37.413924,127.139686,Y,2.0,분당구,7,13,7,417,2,1,20.0,0.08831845977954282,55.26350159312537,1,100.0,1,100.48,99.81,100.07,101.57,100.0,1,0.9902,88.75
초등학교,초림초등학교,경기도 성남시 분당구 수내로 90번길 26,37.376826,127.117592,Y,3.0,분당구,5,13,0,551,5,2,22.0,0.0,96.49393518480231,1,100.0,1,99.89,99.37,99.97,99.16,99.8,1,0.9968,85.68
유치원,미래유치원,경기도 성남시 수정구 수정로 332번길 6-4,37.452885,127.150066,Y,4.0,수정구,7,18,2,499,2,8,110.0,115.54064818764327,36.25465153031571,1,100.0,1,99.87,98.96,100.08,95.7,99.9,1,0.8932,81.27
유치원,성체유치원,경기도 성남시 수정구 탄리로 39,37.439656,127.137203,Y,4.0,수정구,2,36,3,1336,2,23,511.0,205.56534528812145,60.48499139172154,1,100.0,1,92.54,77.21,97.8,79.62,99.9,1,0.7183,60.79
유치원,은솔유치원,경기도 성남시 수정구 위례서일로1길 24,37.467824,127.138154,N,0.0,수정구,4,14,0,72,1,0,0.0,176.5114616562752,65.78233059912193,0,100.0,1,95.38,97.65,99.76,92.41,96.77,1,0.7721,77.08
어린이집,한양어린이집,경기도 성남시 수정구 성남대로 1185,37.435594,127.1281,Y,1.0,수정구,7,36,2,644,4,27,648.0,60.15968715820961,25.099828258739194,1,0.0,0,17.89,61.94,0.78,47.71,87.6,0,0.0119,20.14
어린이집,신흥제3어린이집,경기도 성남시 수정구 공원로349번길 8,37.443531,127.148854,Y,1.0,수정구,6,30,5,652,5,11,214.0,150.1549945971182,34.71862197438348,1,100.0,1,95.41,99.69,99.82,90.63,99.66,1,0.9637,74.81
어린이집,아이세상 어린이집,경기도 성남시 수정구 수정로 135번길5-1,37.4422,127.134779,N,0.0,수정구,8,37,2,1063,5,25,485.0,77.50874765680398,47.892081565228175,0,100.0,1,88.5,73.85,100.4,78.43,99.9,1,0.5645,59.27
어린이집,중앙동어린이집,경기도 성남시 중원구 광명로264번길 9,37.442671,127.156555,Y,1.0,중원구,4,35,6,531,2,15,268.0,236.36830082328507,20.840120794151105,1,93.29999999999995,0,85.29,96.41,93.51,87.2,95.46,0,0.4945,70.44
어린이집,금광2동제2어린이집,경기도 성남시 중원구 산성대로420번길 36,37.448432,127.163031,Y,1.0,중원구,1,33,2,784,3,5,62.0,78.6452291828755,17.936754726209347,1,100.0,1,99.19,98.82,99.65,105.99,99.9,1,0.9977,94.37
어린이집,서광어린이집,경기도 성남시 분당구 판교로 685,37.405702,127.14948,Y,4.0,분당구,1,4,2,377,1,0,0.0,254.5318223336586,60.056944489871,1,100.0,1,98.19,99.0,99.99,99.38,100.45,1,0.9602,85.96
어린이집,분당어린이집,경기도 성남시 분당구 장안로26번길 12,37.368598,127.143274,Y,1.0,분당구,0,24,5,569,3,0,0.0,351.5557176688174,21.17031752310404,1,100.0,1,100.22,99.66,100.06,106.69,100.03,1,0.9969,95.27
어린이집,서현어린이집,경기도 성남시 분당구 중앙공원로31번길 32,37.382447,127.126079,Y,4.0,분당구,4,12,1,608,3,6,117.0,69.65072495887479,15.226595405214614,1,100.0,1,99.78,99.31,100.09,93.84,99.9,1,0.9758,78.91
어린이집,갈보리어린이집,경기도 성남시 분당구 이매로132,37.390494,127.132889,Y,3.0,분당구,1,9,0,115,0,0,0.0,291.57415782860943,59.289311158681315,1,100.0,1,96.9,97.23,99.23,92.43,99.9,1,0.7118,77.11
어린이집,휴맥스어린이집,경기도 성남시 분당구 궁내로 52,37.370358,127.095881,N,0.0,분당구,0,5,0,49,0,0,0.0,502.337702991246,32.125178238730065,0,74.7,0,80.97,91.19,76.69,93.3,96.48,0,0.4659,78.21
어린이집,삼평어린이집,경기도 성남시 분당구 동판교로 268,37.406109,127.115836,Y,1.0,분당구,6,9,4,305,1,0,0.0,116.04024397461863,33.22930182056242,1,100.0,1,100.43,100.0,100.03,99.16,99.9,1,0.9648,85.67
어린이집,판교제2어린이집,경기도 성남시 분당구 운중로225번길 37,37.391851,127.090871,Y,1.0,분당구,2,20,3,338,2,0,0.0,5.5167618653554324,56.030479960113496,1,100.0,1,99.48,99.67,100.0,98.74,100.1,1,0.988,85.14
어린이집,구미동어린이집,경기도 성남시 분당구 금곡로25번길 10,37.344538,127.112319,N,0.0,분당구,3,12,3,502,2,0,0.0,23.740200810169743,27.72335438445766,0,100.0,1,99.85,99.51,100.39,103.97,100.1,1,0.9944,91.8
어린이집,예림어린이집,경기도 성남시 수정구 산성대로437번길7,37.450823,127.157599,N,0.0,수정구,6,27,1,681,6,4,54.0,134.62454768308191,62.21065745581039,0,100.0,1,99.32,99.36,99.93,103.03,99.9,1,0.998,90.61
초등학교,하탑초등학교,경기도 성남시 분당구 양현로 262,37.407326,127.126613,Y,3.0,분당구,6,13,6,488,5,11,162.0,0.0,36.921467582589095,1,100.0,1,99.05,99.84,99.9,93.35,99.92,1,0.9477,78.27
초등학교,늘푸른초등학교,경기도 성남시 분당구 백궁로 247,37.358334,127.105671,Y,3.0,분당구,3,6,5,488,0,0,0.0,0.0,59.41260518122254,1,100.0,1,99.87,99.34,99.95,103.85,99.95,1,0.9882,91.65
초등학교,산운초등학교,경기도 성남시 분당구 판교로117번길 11,37.389753,127.079005,Y,9.0,분당구,8,23,5,750,3,0,0.0,85.20252509665661,40.89605777854047,1,100.0,1,98.89,96.63,99.27,108.68,99.94,1,0.9992,97.8
초등학교,운중초등학교,경기도 성남시 분당구 운중로 45번길 8,37.392419,127.06894,Y,10.0,분당구,4,23,7,436,0,0,0.0,82.4744734501037,50.73121985724951,1,100.0,1,99.48,96.33,100.91,103.72,99.9,1,0.9856,91.49
초등학교,신백현초등학교,경기도 성남시 분당구 판교역로14번길 42,37.387579,127.111751,Y,3.0,분당구,2,22,5,552,2,0,0.0,32.650460585106636,36.552310455293856,1,100.0,1,100.48,99.99,99.97,105.16,99.9,1,0.9974,93.31
초등학교,성남화랑초등학교,경기도 성남시 분당구 동판교로 77,37.390224,127.115888,Y,1.0,분당구,4,6,5,463,2,0,0.0,87.04570330882918,80.05219904211954,1,100.0,1,99.36,99.77,99.75,103.08,100.07,1,0.992,90.67
유치원,고등나래 유치원,경기도 성남시 수정구 청계산로 2길 34,37.426969,127.096496,N,0.0,수정구,6,17,0,78,2,0,0.0,91.38838631842455,27.240540178494722,0,100.0,1,97.05,98.07,100.1,91.99,99.98,1,0.879,76.55
초등학교,성남중앙초등학교,경기도 성남시 중원구 원터로 94번길 7,37.436255,127.143529,Y,5.0,중원구,10,16,6,607,2,14,352.0,113.2724265265617,37.250405062008625,1,63.10000000000002,0,86.2,98.21,95.69,75.04,97.67,0,0.4078,54.95
초등학교,대원초등학교,경기도 성남시 중원구 희망로343번길 24,37.436671,127.155099,Y,6.0,중원구,1,5,1,549,0,9,138.0,255.12021773492617,196.47658323760814,1,100.0,1,99.43,96.82,97.86,93.97,98.31,1,0.5568,79.07
초등학교,대일초등학교,경기도 성남시 중원구 금상로 55번길 22,37.438468,127.164185,Y,3.0,중원구,3,37,1,712,4,6,94.0,67.24101228226006,63.35087424918337,1,100.0,1,99.24,98.97,100.2,99.63,100.1,1,0.9951,86.27
초등학교,성남제일초등학교,경기도 성남시 중원구 광명로 184번길 23,37.438906,127.149609,Y,2.0,중원구,11,16,4,424,0,10,198.0,103.24431934944197,66.13898808736229,1,99.19999999999999,0,96.62,99.62,99.47,86.55,99.1,0,0.4031,69.62
초등학교,성남북초등학교,경기도 성남시 수정구 희망로534번길 3,37.4515,127.151474,Y,6.0,수정구,11,23,4,530,4,8,110.0,2.1127036064431644,58.66978456251954,1,100.0,1,99.94,99.13,99.93,96.51,100.03,1,0.9708,82.3
초등학교,성남수정초등학교,경기도 성남시 수정구 제일로 123번길 9,37.436212,127.132786,Y,6.0,수정구,4,33,5,934,3,20,461.0,145.92782493213318,15.546256314812501,1,94.69999999999999,0,92.18,87.51,94.98,74.14,94.6,1,0.555,53.81
초등학교,수진초등학교,경기도 성남시 수정구 탄리로 95번길 16,37.444944,127.133465,Y,10.0,수정구,3,40,6,887,6,27,460.0,135.89080428910236,23.799189128972042,1,68.09999999999997,0,72.92,70.92,67.04,80.16,91.03,0,0.47,61.48
초등학교,희망대초등학교,경기도 성남시 수정구 공원로 370번길 29,37.447498,127.149115,Y,5.0,수정구,8,20,0,704,3,6,79.0,94.57570345098777,66.49173680947726,1,100.0,1,99.65,98.86,100.11,100.41,99.9,1,0.9866,87.27
초등학교,성남서초등학교,경기도 성남시 수정구 태평로 19,37.448545,127.129403,Y,4.0,수정구,5,16,7,569,3,7,71.0,34.428353010305926,37.045786347198714,1,100.0,1,100.49,99.89,99.85,104.57,100.1,1,0.9867,92.57
초등학교,성남신흥초등학교,경기도 성남시 수정구 공원로 436번길 17,37.450552,127.143485,Y,2.0,수정구,9,36,7,644,0,7,85.0,99.27814729037934,114.11857771005616,1,100.0,1,99.78,96.95,99.92,106.21,99.9,1,0.9617,94.66
초등학교,단대초등학교,경기도 성남시 수정구 단대로 30,37.453611,127.157748,Y,9.0,수정구,5,23,2,550,9,4,54.0,110.64269801343293,75.85571832189281,1,100.0,1,98.62,95.06,99.66,96.88,99.9,1,0.9988,82.78
초등학교,성남양지초등학교,경기도 성남시 수정구 논골로 36번길 33,37.459218,127.160884,Y,3.0,수정구,1,26,6,426,5,4,139.0,70.75074865433382,76.09053324154405,1,100.0,1,100.28,99.77,99.87,87.75,99.9,1,0.9868,71.15
초등학교,위례한빛초등학교,경기도 성남시 수정구 위례동로 55,37.465766,127.147017,Y,1.0,수정구,7,7,0,30,0,0,0.0,0.20861858313783155,63.04256710644547,1,95.0,0,92.97,94.17,93.69,89.54,98.01,1,0.7152,73.42
초등학교,위례푸른초등학교,경기도 성남시 수정구 위례순환로 205,37.470731,127.150981,N,0.0,수정구,5,8,0,4,0,0,0.0,1.944713100700379,92.67907620889319,0,82.2,0,86.24,92.07,83.43,90.37,92.83,1,0.6549,74.48
초등학교,금상초등학교,경기도 성남시 중원구 금상로 97,37.443599,127.165995,Y,9.0,중원구,15,41,5,760,3,3,40.0,5.449266591912032,46.01428533813385,1,100.0,1,98.5,95.26,100.29,106.79,99.9,1,0.9984,95.4
초등학교,상원초등학교,경기도 성남시 중원구 은행로 6,37.453884,127.162776,Y,5.0,중원구,7,28,4,671,8,7,120.0,4.85492264892677,72.45785181169559,1,100.0,1,101.17,98.96,100.31,96.29,99.97,1,0.9984,82.03
초등학교,상탑초등학교,경기도 성남시 분당구 판교로 647,37.406207,127.145695,Y,2.0,분당구,5,9,5,411,1,0,0.0,0.34593794717535425,60.54529195374377,1,100.0,1,100.38,100.0,100.01,101.84,99.97,1,0.9872,89.09
초등학교,서현초등학교,경기도 성남시 분당구 중앙공원로 39번길 12,37.382576,127.12855,Y,3.0,분당구,3,11,4,519,3,4,69.0,0.0,79.57740145311838,1,100.0,1,99.84,99.94,100.01,98.0,100.01,1,0.9872,84.2
초등학교,성남장안초등학교,경기도 성남시 분당구 장안로 51번길 10,37.372662,127.144459,Y,3.0,분당구,4,15,4,528,3,0,0.0,0.0,69.19613461395394,1,100.0,1,100.03,99.73,100.01,103.14,99.99,1,0.9973,90.75
초등학교,안말초등학교,경기도 성남시 분당구 양현로 104,37.393154,127.125984,Y,2.0,분당구,6,15,7,366,2,2,16.0,0.1766858898359093,108.62057106483435,1,100.0,1,99.54,99.77,99.91,101.99,99.9,1,0.9828,89.28
초등학교,야탑초등학교,경기도 성남시 분당구 양현로 400,37.416616,127.125627,Y,8.0,분당구,8,11,6,352,1,4,60.0,50.36907110434958,83.26444689010474,1,100.0,1,99.95,98.14,99.85,96.8,99.95,1,0.9099,82.66
초등학교,오리초등학교,경기도 성남시 분당구 미금로 121,37.344351,127.115379,Y,3.0,분당구,5,9,4,430,1,0,0.0,0.2223898527276371,59.645151974091974,1,100.0,1,100.35,100.0,100.01,101.4,100.04,1,0.9873,88.54
초등학교,이매초등학교,경기도 성남시 분당구 양현로 146,37.39721,127.126493,Y,2.0,분당구,6,15,3,328,2,2,16.0,0.0,62.85604689131626,1,100.0,1,100.29,100.0,100.02,98.2,99.9,1,0.9714,84.46
초등학교,청솔초등학교,경기도 성남시 분당구 금곡로 243,37.354657,127.1141,Y,3.0,분당구,5,6,5,344,1,2,29.0,0.11119492636381853,37.98180241492743,1,100.0,1,99.92,99.73,99.82,98.41,100.02,1,0.9621,84.72
초등학교,중원초등학교,경기도 성남시 중원구 사기막골로31번길 46,37.437855,127.167857,Y,3.0,중원구,1,18,0,494,3,2,32.0,85.18579673780619,85.63040367362919,1,100.0,1,100.48,99.43,100.06,97.68,100.1,1,0.9889,83.79
초등학교,중부초등학교,경기도 성남시 중원구 자혜로 55,37.451546,127.164951,Y,4.0,중원구,5,27,2,599,3,5,63.0,0.11119492636381853,42.713183211231,1,100.0,1,100.31,100.0,100.02,100.53,100.1,1,0.9915,87.42
초등학교,도촌초등학교,경기도 성남시 중원구 도촌남로 99,37.41473,127.158024,Y,4.0,중원구,3,6,5,0,0,0,0.0,114.62994611353817,95.0881908726646,1,80.0,0,89.32,95.64,86.93,92.51,99.53,1,0.7157,77.2
초등학교,구미초등학교,경기도 성남시 분당구 미금로22번길 25,37.337756,127.118398,Y,3.0,분당구,8,5,6,407,1,3,46.0,0.14205745430625685,60.16686053735102,1,100.0,1,101.28,99.07,98.38,99.33,99.87,1,0.96,85.9
초등학교,돌마초등학교,경기도 성남시 분당구 야탑로97번길 7,37.409099,127.130378,Y,3.0,분당구,5,14,4,540,5,11,162.0,0.0,39.6241247762925,1,100.0,1,99.0,99.94,99.91,93.13,99.8,1,0.9558,78.0
초등학교,미금초등학교,경기도 성남시 분당구 미금로 151,37.347422,127.115303,Y,5.0,분당구,5,8,3,464,3,0,0.0,2.8634528303272964,26.489330565921723,1,100.0,1,100.1,99.9,99.96,100.52,99.9,1,0.9952,87.41
초등학교,분당초등학교,경기도 성남시 분당구 중앙공원로 32번길 20,37.378988,127.129653,Y,3.0,분당구,4,4,2,486,5,6,24.0,0.0,53.37253437406754,1,100.0,1,99.81,99.42,99.96,103.2,99.9,1,0.9906,90.82
초등학교,성남여수초등학교,경기도 성남시 중원구 여수울로 37,37.419449,127.133081,Y,5.0,중원구,5,11,4,182,2,2,26.0,54.794157825333976,58.736761810640196,1,100.0,1,99.93,99.99,100.2,93.85,100.09,1,0.9169,78.92
초등학교,보평초등학교,경기도 성남시 분당구 동판교로 154,37.396039,127.117758,Y,6.0,분당구,4,17,5,347,2,1,13.0,46.71600630736221,47.33028734761217,1,100.0,1,100.79,100.0,99.92,99.13,100.1,1,0.9828,85.63
초등학교,낙생초등학교,경기도 성남시 분당구 서판교로74번길 11,37.394357,127.098914,Y,12.0,분당구,4,19,7,459,1,0,0.0,5.893993199007692,41.285756036112694,1,100.0,1,98.96,96.65,100.98,103.3,99.9,1,0.9928,90.95
초등학교,성남은행초등학교,경기도 성남시 중원구 순환로 447번길 11,37.461002,127.170901,Y,4.0,중원구,1,11,3,271,1,3,53.0,268.3240191727274,77.1374552931668,1,100.0,1,99.87,99.58,99.98,93.97,99.93,1,0.8222,79.07
유치원,창조유치원,경기도 성남시 분당구 불곡로17번길 8,37.359154,127.124992,Y,1.0,분당구,0,30,1,227,0,0,0.0,497.5289310194114,29.963620783450512,1,100.0,1,99.43,96.15,99.07,97.31,99.9,1,0.8371,83.32
유치원,꾸러기유치원,경기도 성남시 분당구 양현로 220,37.403847,127.127335,Y,5.0,분당구,5,9,3,322,1,1,13.0,156.3870306277327,112.69051300497154,1,100.0,1,100.19,99.81,99.97,97.63,100.1,1,0.9338,83.72
유치원,은혜유치원,경기도 성남시 분당구 내정로7번길 24,37.360908,127.111946,Y,1.0,분당구,5,15,5,506,3,0,0.0,250.07519018700333,0.6671695597630861,1,100.0,1,100.72,99.53,99.95,104.6,99.9,1,0.9954,92.61
유치원,희영유치원,경기도 성남시 분당구 동판교로 49,37.388294,127.114186,N,0.0,분당구,5,21,7,531,2,0,0.0,75.50596445956869,102.45085150384753,0,100.0,1,99.14,99.38,99.75,107.8,98.62,1,0.9959,96.69
어린이집,단대어린이집,경기도 성남시 수정구 희망로506번길 21,37.449645,127.155665,Y,1.0,수정구,1,37,5,657,4,6,87.0,201.94442745846652,20.482770234082967,1,100.0,1,99.93,98.7,100.3,103.1,99.9,1,0.995,90.69
어린이집,신흥제2어린이집,경기도 성남시 수정구 수정로257번길 18,37.449202,127.144413,Y,1.0,수정구,10,38,10,739,3,7,85.0,76.46172953733488,52.98151029796307,1,100.0,1,101.07,99.21,100.0,109.81,99.96,1,0.9964,99.24
초등학교,한솔초등학교,경기도 성남시 분당구 돌마로 303,37.366777,127.118015,Y,1.0,분당구,1,13,3,432,4,0,0.0,99.18121994068103,66.09607975134597,1,100.0,1,99.75,100.0,100.05,100.44,100.11,1,0.9959,87.3
초등학교,성남송현초등학교,경기도 성남시 분당구 동판교로 258,37.405458,127.116346,Y,5.0,분당구,7,8,4,315,1,0,0.0,87.88841495186703,44.78397445371122,1,100.0,1,101.04,99.86,100.04,98.66,100.2,1,0.9645,85.04
유치원,위례하늘유치원,경기도 성남시 수정구 위례동이로 14,37.467037,127.151134,Y,1.0,수정구,2,10,0,22,0,0,0.0,244.9889811734027,52.82409572556715,1,83.6,0,85.44,93.15,83.92,90.37,99.19,1,0.6153,74.49
초등학교,단남초등학교,경기도 성남시 중원구 광명로 300번길 25,37.442905,127.161374,Y,2.0,중원구,17,38,5,734,0,8,118.0,36.528636782984734,47.01896881996733,1,100.0,1,98.3,98.8,99.92,103.29,99.17,1,0.9593,90.93
초등학교,대하초등학교,경기도 성남시 중원구 시민로 14,37.431908,127.151304,Y,3.0,중원구,4,14,2,234,3,2,39.0,76.52251383369207,29.302925259603523,1,100.0,1,100.4,100.0,99.99,91.99,100.1,1,0.9513,76.55
초등학교,복정초등학교,경기도 성남시 수정구 성남대로 1480번길 25,37.46247,127.130386,Y,6.0,수정구,3,11,0,451,5,0,0.0,108.25166407478969,82.03968395362104,1,100.0,1,100.9,99.18,99.99,97.51,100.1,1,0.9958,83.58
초등학교,위례고운초등학교,경기도 성남시 수정구 위례순환로 155,37.471437,127.145794,N,0.0,수정구,5,7,0,59,0,0,0.0,6.151960403425647,81.95237156340009,0,96.7,0,87.38,92.89,88.17,91.68,93.7,1,0.7289,76.15
초등학교,위례중앙초등학교,경기도 성남시 수정구 위례순환로 71,37.471899,127.135874,Y,1.0,수정구,3,9,0,97,1,0,0.0,0.14195909263545692,56.00111396921461,1,100.0,1,99.43,98.99,100.01,90.91,99.89,1,0.8774,75.17
초등학교,불정초등학교,경기도 성남시 분당구 돌마로 250,37.361254,127.119496,Y,3.0,분당구,5,13,6,499,4,1,20.0,53.216167325548795,42.83964013476446,1,100.0,1,100.02,99.85,99.97,102.17,100.01,1,0.9971,89.51
초등학교,성남신기초등학교,경기도 성남시 분당구 황새울로 74,37.366582,127.11106,Y,3.0,분당구,6,13,7,598,5,2,12.0,0.0,63.292991459008135,1,100.0,1,100.12,99.98,99.87,106.84,99.9,1,0.999,95.46
초등학교,하원초등학교,경기도 성남시 중원구 광명로 396,37.446255,127.170236,Y,2.0,중원구,7,16,6,426,3,1,11.0,101.00869376965447,41.85814304760446,1,100.0,1,100.07,99.95,100.04,102.33,100.05,1,0.9925,89.72
초등학교,상대원초등학교,경기도 성남시 중원구 순환로 214번길 16,37.442382,127.181591,Y,3.0,중원구,4,5,2,124,1,0,0.0,0.11119492636381853,75.19277166013877,1,100.0,1,97.28,99.22,98.63,92.61,99.72,1,0.896,77.33
초등학교,내정초등학교,경기도 성남시 분당구 내정로 174번길 19,37.372402,127.122264,Y,2.0,분당구,5,13,1,514,2,1,11.0,38.16687360597745,28.69049274895626,1,100.0,1,100.4,100.0,99.99,100.85,100.11,1,0.9914,87.83
초등학교,백현초등학교,경기도 성남시 분당구 백현로 144번길 26,37.372193,127.111168,Y,2.0,분당구,3,18,3,694,8,0,0.0,96.36793550626673,63.87202506730989,1,100.0,1,99.85,99.99,100.2,105.13,99.9,1,0.9999,93.27
초등학교,탄천초등학교,경기도 성남시 분당구 내정로 20,37.361599,127.115645,Y,3.0,분당구,5,16,5,446,5,0,0.0,67.65109468404162,67.65109468404162,1,100.0,1,99.94,99.54,100.0,101.47,100.01,1,0.9979,88.62
유치원,위례새초롱유치원,경기도 성남시 수정구 위례순환로4길 2,37.469683,127.147866,N,0.0,수정구,5,14,0,26,0,0,0.0,149.78027869282928,26.871426938232027,0,100.0,1,97.85,93.9,98.31,91.63,99.9,1,0.6561,76.09
유치원,선경유치원,경기도 성남시 중원구 자혜로 17번길 16,37.450411,127.162262,Y,4.0,중원구,8,25,1,714,4,5,63.0,187.44373291898177,75.59561400214824,1,100.0,1,100.21,97.97,100.39,102.63,99.93,1,0.9937,90.1
유치원,도촌유치원,경기도 성남시 중원구 도촌남로 22-1,37.413897,127.149775,N,0.0,중원구,3,13,5,89,0,0,0.0,0.20872214951157417,46.96892561074805,0,100.0,1,97.16,98.5,99.76,96.3,99.9,1,0.8763,82.04
유치원,안촌 유치원,경기도 성남시 분당구 느티로 70,37.368171,127.110392,Y,1.0,분당구,6,18,4,598,7,2,12.0,166.50823629105668,61.458145971508216,1,100.0,1,100.23,99.93,100.01,104.88,99.9,1,0.9992,92.96
유치원,꿈터 유치원,경기도 성남시 분당구 미금일로 58,37.347269,127.113122,Y,1.0,분당구,5,15,2,563,3,1,18.0,108.89740830118932,104.53138933658198,1,100.0,1,99.53,99.81,99.96,101.75,99.97,1,0.9944,88.97
특수학교,서울국제학교,경기도 성남시 수정구 성남대로 1518번길 15,37.465792,127.128438,N,0.0,수정구,1,16,1,517,5,0,0.0,0.0,64.48304372892677,0,100.0,1,99.78,99.62,99.92,101.76,99.9,1,0.9984,88.99
초등학교,성남초등학교,경기도 성남시 수정구 수정로 233,37.446085,127.144145,Y,4.0,수정구,7,40,7,958,8,13,259.0,85.46038890625015,46.19701643782365,1,100.0,1,107.72,98.24,99.2,93.95,100.1,1,0.9977,79.05
초등학교,서당초등학교,경기도 성남시 분당구 돌마로 476번길 30,37.374602,127.134587,Y,3.0,분당구,5,13,4,515,6,5,9.0,0.17672960989126094,60.29442912769521,1,100.0,1,100.27,99.99,100.01,106.07,100.01,1,0.9973,94.48
초등학교,양영초등학교,경기도 성남시 분당구 불정로 406번길 17,37.37466,127.140091,Y,4.0,분당구,4,19,3,495,3,0,0.0,0.0,76.05841978442024,1,100.0,1,99.84,99.48,100.01,101.55,99.99,1,0.9965,88.72
초등학교,판교대장초등학교,경기도 성남시 분당구 판교대장로 5길 71,37.368279,127.069713,Y,3.0,분당구,7,24,0,0,1,0,0.0,54.80159091471591,54.80159091471591,1,100.0,1,97.99,95.81,99.01,88.73,99.9,1,0.78,72.4
유치원,신흥성모유치원,경기도 성남시 수정구 공원로 432,37.449077,127.143242,Y,1.0,수정구,9,51,11,792,6,7,88.0,0.11119492636381853,30.134988826684214,1,100.0,1,99.98,98.01,99.98,110.41,99.9,1,0.9996,100.0
어린이집,복정어린이집,경기도 성남시 수정구 복정로96번길 30-1,37.461129,127.130488,Y,4.0,수정구,3,8,0,399,5,0,0.0,124.77401965551577,26.698063438627837,1,100.0,1,101.56,99.39,100.01,96.66,99.84,1,0.9947,82.49
어린이집,다솜어린이집,경기도 성남시 중원구 박석로 14,37.434004,127.166096,Y,1.0,중원구,0,13,2,415,4,0,0.0,391.2124187508326,18.900080103233154,1,100.0,1,100.08,99.35,100.21,100.4,100.1,1,0.9905,87.25
어린이집,하대원어린이집,경기도 성남시 중원구 마지로155번길 27,37.427838,127.149429,Y,1.0,중원구,2,18,3,220,2,2,39.0,111.98563507033764,26.97666269741961,1,100.0,1,101.65,99.93,100.21,93.29,99.9,1,0.9338,78.2
어린이집,판교어린이집,경기도 성남시 분당구 판교원로 200,37.385948,127.088207,Y,1.0,분당구,2,12,6,232,4,0,0.0,104.28636318184695,37.330744800886364,1,100.0,1,99.79,99.92,99.71,97.96,99.62,1,0.9893,84.15
어린이집,성남생명숲어린이집,경기도 성남시 분당구 내정로119번길 2,37.371025,127.115253,Y,1.0,분당구,2,25,1,589,6,0,0.0,288.0816004448543,27.391454483255426,1,100.0,1,100.23,99.68,100.0,102.89,99.98,1,0.999,90.43
어린이집,늘사랑어린이집,경기도 성남시 분당구 야탑로 20,37.408334,127.122855,Y,1.0,분당구,3,9,4,377,3,6,92.0,134.65397461776362,99.52007320743726,1,100.0,1,99.47,99.58,99.98,94.44,99.79,1,0.9167,79.67
어린이집,수내동어린이집,경기도 성남시 분당구 황새울로240번길 10-5,37.379099,127.114714,Y,1.0,분당구,2,15,4,525,4,1,11.0,53.31893420968848,17.061943533893125,1,100.0,1,100.49,99.93,100.0,102.95,99.93,1,0.9978,90.5
